[
  {
    "id": 1,
    "image_url": "https://upload.wikimedia.org/wikipedia/commons/thumb/7/7c/Sydney_Opera_House_-_Dec_2008.jpg/1280px-Sydney_Opera_House_-_Dec_2008.jpg",
    "location": { "lat": -33.8568, "lng": 151.2153 },
    "name": "Sydney Opera House, Australia",
    "difficulty": "easy"
  },
  {
    "id": 2,
    "image_url": "https://upload.wikimedia.org/wikipedia/commons/thumb/9/93/Sunset_Santorini_Greece.jpg/1280px-Sunset_Santorini_Greece.jpg",
    "location": { "lat": 36.3932, "lng": 25.4615 },
    "name": "Santorini, Greece",
    "difficulty": "medium"
  },
  {
    "id": 3,
    "image_url": "https://upload.wikimedia.org/wikipedia/commons/thumb/2/23/The_Great_Wall_of_China_at_Jinshanling-edit.jpg/1280px-The_Great_Wall_of_China_at_Jinshanling-edit.jpg",
    "location": { "lat": 40.6769, "lng": 117.2320 },
    "name": "Great Wall of China, Jinshanling, China",
    "difficulty": "medium"
  },
  {
    "id": 4,
    "image_url": "https://upload.wikimedia.org/wikipedia/commons/thumb/6/62/Al_Khazneh_Petra_edit_2.jpg/1280px-Al_Khazneh_Petra_edit_2.jpg",
    "location": { "lat": 30.3285, "lng": 35.4444 },
    "name": "Petra (Al-Khazneh), Jordan",
    "difficulty": "easy"
  },
  {
    "id": 5,
    "image_url": "https://upload.wikimedia.org/wikipedia/commons/thumb/2/25/Angkor_Wat_with_its_reflection_%28cropped%29.jpg/1280px-Angkor_Wat_with_its_reflection_%28cropped%29.jpg",
    "location": { "lat": 13.4125, "lng": 103.8670 },
    "name": "Angkor Wat, Cambodia",
    "difficulty": "easy"
  },
  {
    "id": 6,
    "image_url": "https://upload.wikimedia.org/wikipedia/commons/thumb/d/dc/Table_Mountain_DanieVDM.jpg/1280px-Table_Mountain_DanieVDM.jpg",
    "location": { "lat": -33.9628, "lng": 18.4098 },
    "name": "Table Mountain, Cape Town, South Africa",
    "difficulty": "medium"
  },
  {
    "id": 7,
    "image_url": "https://upload.wikimedia.org/wikipedia/commons/thumb/e/e4/Hallstatt_300.jpg/1280px-Hallstatt_300.jpg",
    "location": { "lat": 47.5622, "lng": 13.6493 },
    "name": "Hallstatt, Austria",
    "difficulty": "hard"
  },
  {
    "id": 8,
    "image_url": "https://upload.wikimedia.org/wikipedia/commons/thumb/4/4f/Christ_the_Redeemer_-_Cristo_Redentor.jpg/1280px-Christ_the_Redeemer_-_Cristo_Redentor.jpg",
    "location": { "lat": -22.9519, "lng": -43.2105 },
    "name": "Christ the Redeemer, Rio de Janeiro, Brazil",
    "difficulty": "easy"
  },
  {
    "id": 9,
    "image_url": "https://upload.wikimedia.org/wikipedia/commons/thumb/0/0e/Torii_path_with_lantern_at_Fushimi_Inari_Taisha_Shrine%2C_Kyoto%2C_Japan.jpg/1280px-Torii_path_with_lantern_at_Fushimi_Inari_Taisha_Shrine%2C_Kyoto%2C_Japan.jpg",
    "location": { "lat": 34.9671, "lng": 135.7727 },
    "name": "Fushimi Inari Shrine, Kyoto, Japan",
    "difficulty": "medium"
  },
  {
    "id": 10,
    "image_url": "https://upload.wikimedia.org/wikipedia/commons/thumb/c/c5/Moraine_Lake_17092005.jpg/1280px-Moraine_Lake_17092005.jpg",
    "location": { "lat": 51.3217, "lng": -116.1860 },
    "name": "Moraine Lake, Banff, Canada",
    "difficulty": "medium"
  },
  {
    "id": 11,
    "image_url": "https://upload.wikimedia.org/wikipedia/commons/thumb/c/c5/Egypt.Giza.Sphinx.01.jpg/1280px-Egypt.Giza.Sphinx.01.jpg",
    "location": { "lat": 29.9753, "lng": 31.1376 },
    "name": "Great Sphinx and Pyramids of Giza, Egypt",
    "difficulty": "easy"
  },
  {
    "id": 12,
    "image_url": "https://upload.wikimedia.org/wikipedia/commons/thumb/a/af/Halong_bay.jpg/1280px-Halong_bay.jpg",
    "location": { "lat": 20.9101, "lng": 107.1839 },
    "name": "Ha Long Bay, Vietnam",
    "difficulty": "hard"
  }
]
